[
  {
    "name": "Taj Mahal",
    "state": "Uttar Pradesh",
    "district": "Agra",
    "category": "Heritage",
    "description": "One of the Seven Wonders of the World.",
    "lat": 27.1751,
    "lng": 78.0421,
    "image": "https://images.unsplash.com/photo-1587135991058-8816c2f7c7c6",
    "bestTime": "Oct - Mar",
    "crowd": "Very High",
    "duration": "2-3 hours",
    "isFamous": true
  },
  {
    "name": "Red Fort",
    "state": "Delhi",
    "district": "Delhi",
    "category": "Heritage",
    "description": "Historic fort and UNESCO site.",
    "lat": 28.6562,
    "lng": 77.2410,
    "image": "https://images.unsplash.com/photo-1585136917971-49b8f5c7e38b",
    "bestTime": "Oct - Mar",
    "crowd": "High",
    "duration": "2 hours",
    "isFamous": true
  },
  {
    "name": "Qutub Minar",
    "state": "Delhi",
    "district": "Delhi",
    "category": "Heritage",
    "description": "Tallest brick minaret in the world.",
    "lat": 28.5245,
    "lng": 77.1855,
    "image": "https://images.unsplash.com/photo-1603532648955-039310d9ed75",
    "bestTime": "Oct - Mar",
    "crowd": "High",
    "duration": "1-2 hours",
    "isFamous": true
  },
  {
    "name": "Gateway of India",
    "state": "Maharashtra",
    "district": "Mumbai",
    "category": "Heritage",
    "description": "Iconic sea-facing monument.",
    "lat": 18.9220,
    "lng": 72.8347,
    "image": "https://images.unsplash.com/photo-1593693397690-362cb9666fc2",
    "bestTime": "Nov - Feb",
    "crowd": "High",
    "duration": "1 hour",
    "isFamous": true
  },
  {
    "name": "Goa Beaches",
    "state": "Goa",
    "district": "North Goa",
    "category": "Beach",
    "description": "Famous beaches and nightlife.",
    "lat": 15.2993,
    "lng": 74.1240,
    "image": "https://images.unsplash.com/photo-1507525428034-b723cf961d3e",
    "bestTime": "Nov - Feb",
    "crowd": "High",
    "duration": "Full day",
    "isFamous": true
  },
  {
    "name": "Hampi",
    "state": "Karnataka",
    "district": "Ballari",
    "category": "Heritage",
    "description": "Ancient ruins of Vijayanagara Empire.",
    "lat": 15.3350,
    "lng": 76.4600,
    "image": "https://images.unsplash.com/photo-1524492412937-b28074a5d7da",
    "bestTime": "Oct - Feb",
    "crowd": "Medium",
    "duration": "2 days",
    "isFamous": true
  },
  {
    "name": "Mysore Palace",
    "state": "Karnataka",
    "district": "Mysuru",
    "category": "Heritage",
    "description": "Royal palace with grand architecture.",
    "lat": 12.3051,
    "lng": 76.6551,
    "image": "https://images.unsplash.com/photo-1590766940558-634a7ed41450",
    "bestTime": "Oct - Feb",
    "crowd": "Medium",
    "duration": "2 hours",
    "isFamous": true
  },
  {
    "name": "Coorg",
    "state": "Karnataka",
    "district": "Kodagu",
    "category": "Hill",
    "description": "Scenic hill station with coffee plantations.",
    "lat": 12.3375,
    "lng": 75.8069,
    "image": "https://images.unsplash.com/photo-1501785888041-af3ef285b470",
    "bestTime": "Oct - Mar",
    "crowd": "Medium",
    "duration": "2 days",
    "isFamous": true
  },
  {
    "name": "Ooty",
    "state": "Tamil Nadu",
    "district": "Nilgiris",
    "category": "Hill",
    "description": "Popular hill station with tea gardens.",
    "lat": 11.4064,
    "lng": 76.6932,
    "image": "https://images.unsplash.com/photo-1586190848861-99aa4a171e90",
    "bestTime": "Oct - Jun",
    "crowd": "High",
    "duration": "2 days",
    "isFamous": true
  },
  {
    "name": "Meenakshi Temple",
    "state": "Tamil Nadu",
    "district": "Madurai",
    "category": "Temple",
    "description": "Famous temple with colorful towers.",
    "lat": 9.9195,
    "lng": 78.1193,
    "image": "https://images.unsplash.com/photo-1600100397608-f09075704f66",
    "bestTime": "Oct - Mar",
    "crowd": "High",
    "duration": "2 hours",
    "isFamous": true
  },
  {
    "name": "RK Beach",
    "state": "Andhra Pradesh",
    "district": "Visakhapatnam",
    "category": "Beach",
    "description": "Famous beach with submarine museum.",
    "lat": 17.7144,
    "lng": 83.3236,
    "image": "https://images.unsplash.com/photo-1500530855697-b586d89ba3ee",
    "bestTime": "Oct - Mar",
    "crowd": "High",
    "duration": "2-3 hours",
    "isFamous": true
  },
  {
    "name": "Kailasagiri",
    "state": "Andhra Pradesh",
    "district": "Visakhapatnam",
    "category": "Hill",
    "description": "Hilltop park with city view.",
    "lat": 17.7465,
    "lng": 83.3406,
    "image": "https://images.unsplash.com/photo-1593693397690-362cb9666fc2",
    "bestTime": "Oct - Feb",
    "crowd": "Medium",
    "duration": "2 hours",
    "isFamous": true
  },
  {
    "name": "Araku Valley",
    "state": "Andhra Pradesh",
    "district": "Alluri Sitharama Raju",
    "category": "Hill",
    "description": "Beautiful valley with coffee plantations.",
    "lat": 18.3270,
    "lng": 82.8770,
    "image": "https://images.unsplash.com/photo-1501785888041-af3ef285b470",
    "bestTime": "Oct - Mar",
    "crowd": "Medium",
    "duration": "1-2 days",
    "isFamous": true
  },
  {
    "name": "Borra Caves",
    "state": "Andhra Pradesh",
    "district": "Alluri Sitharama Raju",
    "category": "Nature",
    "description": "Natural limestone caves.",
    "lat": 18.2806,
    "lng": 83.0416,
    "image": "https://images.unsplash.com/photo-1585136917971-49b8f5c7e38b",
    "bestTime": "Oct - Feb",
    "crowd": "Medium",
    "duration": "2 hours",
    "isFamous": true
  },
  {
    "name": "Tirupati Balaji",
    "state": "Andhra Pradesh",
    "district": "Tirupati",
    "category": "Temple",
    "description": "World famous temple of Lord Venkateswara.",
    "lat": 13.6288,
    "lng": 79.4192,
    "image": "https://images.unsplash.com/photo-1524492412937-b28074a5d7da",
    "bestTime": "Sep - Mar",
    "crowd": "Very High",
    "duration": "Full day",
    "isFamous": true
  },
  {
    "name": "Srisailam",
    "state": "Andhra Pradesh",
    "district": "Nandyal",
    "category": "Temple",
    "description": "Jyotirlinga temple and dam.",
    "lat": 16.0724,
    "lng": 78.8680,
    "image": "https://images.unsplash.com/photo-1600100397608-f09075704f66",
    "bestTime": "Oct - Mar",
    "crowd": "High",
    "duration": "1-2 days",
    "isFamous": true
  },
  {
    "name": "Belum Caves",
    "state": "Andhra Pradesh",
    "district": "Kurnool",
    "category": "Nature",
    "description": "Longest caves in India.",
    "lat": 15.1067,
    "lng": 78.1103,
    "image": "https://images.unsplash.com/photo-1585136917971-49b8f5c7e38b",
    "bestTime": "Oct - Feb",
    "crowd": "Medium",
    "duration": "2 hours",
    "isFamous": false
  },
  {
    "name": "Horsley Hills",
    "state": "Andhra Pradesh",
    "district": "Annamayya",
    "category": "Hill",
    "description": "Cool hill station in AP.",
    "lat": 13.6534,
    "lng": 78.3945,
    "image": "https://images.unsplash.com/photo-1501785888041-af3ef285b470",
    "bestTime": "Sep - Feb",
    "crowd": "Low",
    "duration": "1 day",
    "isFamous": false
  },
  {
    "name": "Gandikota",
    "state": "Andhra Pradesh",
    "district": "YSR Kadapa",
    "category": "Canyon",
    "description": "Grand Canyon of India.",
    "lat": 14.8144,
    "lng": 78.2860,
    "image": "https://images.unsplash.com/photo-1500530855697-b586d89ba3ee",
    "bestTime": "Oct - Feb",
    "crowd": "Medium",
    "duration": "4 hours",
    "isFamous": true
  },
  {
    "name": "Lepakshi Temple",
    "state": "Andhra Pradesh",
    "district": "Sri Sathya Sai",
    "category": "Temple",
    "description": "Famous for hanging pillar.",
    "lat": 13.8000,
    "lng": 77.6060,
    "image": "https://images.unsplash.com/photo-1600100397608-f09075704f66",
    "bestTime": "Oct - Mar",
    "crowd": "Medium",
    "duration": "2 hours",
    "isFamous": true
  },
  {
    "name": "Maredumilli Forest",
    "state": "Andhra Pradesh",
    "district": "Alluri Sitharama Raju",
    "category": "Nature",
    "description": "Dense forest with waterfalls and eco-tourism.",
    "lat": 17.6170,
    "lng": 81.7890,
    "image": "https://images.unsplash.com/photo-1501785888041-af3ef285b470",
    "bestTime": "Oct - Feb",
    "crowd": "Low",
    "duration": "1 day",
    "isFamous": true
  },
  {
    "name": "Papikondalu",
    "state": "Andhra Pradesh",
    "district": "Eluru",
    "category": "Hill",
    "description": "Scenic river cruise hills on Godavari.",
    "lat": 17.3900,
    "lng": 81.4500,
    "image": "https://images.unsplash.com/photo-1500530855697-b586d89ba3ee",
    "bestTime": "Nov - Feb",
    "crowd": "Medium",
    "duration": "1 day",
    "isFamous": true
  },
  {
    "name": "Undavalli Caves",
    "state": "Andhra Pradesh",
    "district": "Guntur",
    "category": "Heritage",
    "description": "Ancient rock-cut caves.",
    "lat": 16.5030,
    "lng": 80.5800,
    "image": "https://images.unsplash.com/photo-1585136917971-49b8f5c7e38b",
    "bestTime": "Oct - Mar",
    "crowd": "Medium",
    "duration": "1-2 hours",
    "isFamous": true
  },
  {
    "name": "Amaravati Stupa",
    "state": "Andhra Pradesh",
    "district": "Guntur",
    "category": "Heritage",
    "description": "Ancient Buddhist site.",
    "lat": 16.5720,
    "lng": 80.3570,
    "image": "https://images.unsplash.com/photo-1590766940558-634a7ed41450",
    "bestTime": "Oct - Mar",
    "crowd": "Low",
    "duration": "1 hour",
    "isFamous": false
  },
  {
    "name": "Kondapalli Fort",
    "state": "Andhra Pradesh",
    "district": "NTR",
    "category": "Heritage",
    "description": "Historic fort near Vijayawada.",
    "lat": 16.6200,
    "lng": 80.5400,
    "image": "https://images.unsplash.com/photo-1524492412937-b28074a5d7da",
    "bestTime": "Oct - Feb",
    "crowd": "Low",
    "duration": "2 hours",
    "isFamous": false
  },
  {
    "name": "Kolleru Lake",
    "state": "Andhra Pradesh",
    "district": "Eluru",
    "category": "Lake",
    "description": "One of the largest freshwater lakes.",
    "lat": 16.6300,
    "lng": 81.2000,
    "image": "https://images.unsplash.com/photo-1507525428034-b723cf961d3e",
    "bestTime": "Nov - Feb",
    "crowd": "Low",
    "duration": "2 hours",
    "isFamous": true
  },
  {
    "name": "Talakona Waterfalls",
    "state": "Andhra Pradesh",
    "district": "Tirupati",
    "category": "Waterfall",
    "description": "Highest waterfall in AP.",
    "lat": 13.8040,
    "lng": 79.2090,
    "image": "https://images.unsplash.com/photo-1585136917971-49b8f5c7e38b",
    "bestTime": "Jul - Jan",
    "crowd": "Medium",
    "duration": "3 hours",
    "isFamous": true
  },
  {
    "name": "Sriharikota",
    "state": "Andhra Pradesh",
    "district": "Tirupati",
    "category": "Science",
    "description": "ISRO launch center.",
    "lat": 13.7190,
    "lng": 80.2300,
    "image": "https://images.unsplash.com/photo-1500530855697-b586d89ba3ee",
    "bestTime": "Anytime",
    "crowd": "Low",
    "duration": "2 hours",
    "isFamous": false
  },
  {
    "name": "Pulicat Lake",
    "state": "Andhra Pradesh",
    "district": "Tirupati",
    "category": "Lake",
    "description": "Famous for flamingos.",
    "lat": 13.5000,
    "lng": 80.1800,
    "image": "https://images.unsplash.com/photo-1507525428034-b723cf961d3e",
    "bestTime": "Nov - Feb",
    "crowd": "Low",
    "duration": "2 hours",
    "isFamous": true
  },
  {
    "name": "Annavaram Temple",
    "state": "Andhra Pradesh",
    "district": "Kakinada",
    "category": "Temple",
    "description": "Famous temple of Lord Satyanarayana.",
    "lat": 17.2570,
    "lng": 82.4170,
    "image": "https://images.unsplash.com/photo-1600100397608-f09075704f66",
    "bestTime": "Oct - Mar",
    "crowd": "High",
    "duration": "2 hours",
    "isFamous": true
  },
  {
    "name": "Draksharamam Temple",
    "state": "Andhra Pradesh",
    "district": "Konaseema",
    "category": "Temple",
    "description": "One of the Pancharama temples.",
    "lat": 16.7900,
    "lng": 82.0500,
    "image": "https://images.unsplash.com/photo-1600100397608-f09075704f66",
    "bestTime": "Oct - Mar",
    "crowd": "Medium",
    "duration": "1-2 hours",
    "isFamous": true
  },
  {
    "name": "Konaseema",
    "state": "Andhra Pradesh",
    "district": "Konaseema",
    "category": "Nature",
    "description": "Beautiful coconut plantations and backwaters.",
    "lat": 16.5000,
    "lng": 82.0000,
    "image": "https://images.unsplash.com/photo-1507525428034-b723cf961d3e",
    "bestTime": "Nov - Feb",
    "crowd": "Low",
    "duration": "1 day",
    "isFamous": true
  },
  {
    "name": "Rajahmundry Godavari Bridge",
    "state": "Andhra Pradesh",
    "district": "East Godavari",
    "category": "City",
    "description": "Scenic bridge over Godavari river.",
    "lat": 17.0000,
    "lng": 81.7800,
    "image": "https://images.unsplash.com/photo-1500530855697-b586d89ba3ee",
    "bestTime": "Oct - Mar",
    "crowd": "Medium",
    "duration": "1 hour",
    "isFamous": false
  },
  {
    "name": "Dowleswaram Barrage",
    "state": "Andhra Pradesh",
    "district": "East Godavari",
    "category": "Nature",
    "description": "Historic barrage across Godavari.",
    "lat": 17.0300,
    "lng": 81.8000,
    "image": "https://images.unsplash.com/photo-1507525428034-b723cf961d3e",
    "bestTime": "Oct - Feb",
    "crowd": "Low",
    "duration": "1 hour",
    "isFamous": false
  },
  {
    "name": "Rushikonda Beach",
    "state": "Andhra Pradesh",
    "district": "Visakhapatnam",
    "category": "Beach",
    "description": "Popular beach for water sports.",
    "lat": 17.7820,
    "lng": 83.3850,
    "image": "https://images.unsplash.com/photo-1507525428034-b723cf961d3e",
    "bestTime": "Oct - Mar",
    "crowd": "High",
    "duration": "2-3 hours",
    "isFamous": true
  },
  {
    "name": "Yarada Beach",
    "state": "Andhra Pradesh",
    "district": "Visakhapatnam",
    "category": "Beach",
    "description": "Less crowded scenic beach.",
    "lat": 17.6550,
    "lng": 83.2740,
    "image": "https://images.unsplash.com/photo-1507525428034-b723cf961d3e",
    "bestTime": "Oct - Feb",
    "crowd": "Low",
    "duration": "2 hours",
    "isFamous": false
  },
  {
    "name": "Katiki Waterfalls",
    "state": "Andhra Pradesh",
    "district": "Alluri Sitharama Raju",
    "category": "Waterfall",
    "description": "Beautiful waterfall near Araku.",
    "lat": 18.2500,
    "lng": 82.9000,
    "image": "https://images.unsplash.com/photo-1585136917971-49b8f5c7e38b",
    "bestTime": "Jul - Jan",
    "crowd": "Medium",
    "duration": "2 hours",
    "isFamous": true
  },
  {
    "name": "Lambasingi",
    "state": "Andhra Pradesh",
    "district": "Alluri Sitharama Raju",
    "category": "Hill",
    "description": "Known as Kashmir of Andhra.",
    "lat": 17.8000,
    "lng": 82.5500,
    "image": "https://images.unsplash.com/photo-1501785888041-af3ef285b470",
    "bestTime": "Dec - Feb",
    "crowd": "Medium",
    "duration": "1 day",
    "isFamous": true
  }
]